{"timetable":{"arrivals":[{"through_the_stations":"Torino (Vittorio Emanuele) \u2192 Milan (Lampugnano bus station) \u2192 Brescia (SAIA bus station) \u2192 Venice Mestre (Stazione FS) \u2192 Venice (Airport VCE) \u2192 Trieste \u2192 Ljubljana","datetime":{"timestamp":1570551600,"tz":"GMT+02:00"},"line_direction":"Route 402 direction Zagreb","route":[{"id":3388,"name":"Torino (Vittorio Emanuele)","default_address":{"address":"Corso Vittorio Emanuele II 131 \/ H (Stalli da 1 a 7)","full_address":"Corso Vittorio Emanuele II 131 \/ H (Stalli da 1 a 7), 10138 Turin, Italy","coordinates":{"latitude":45.069623,"longitude":7.659043}},"address":"Corso Vittorio Emanuele II 131 \/ H (Stalli da 1 a 7)","full_address":"Corso Vittorio Emanuele II 131 \/ H (Stalli da 1 a 7), 10138 Turin, Italy","coordinates":{"latitude":45.069623,"longitude":7.659043}},{"id":1304,"name":"Milan (Lampugnano bus station)","default_address":{"address":"Via Giulio Natta 226","full_address":"Via Giulio Natta 226, 20151 Milano (Mailand), Italy","coordinates":{"latitude":45.489719,"longitude":9.127528}},"address":"Via Giulio Natta 226","full_address":"Via Giulio Natta 226, 20151 Milano (Mailand), Italy","coordinates":{"latitude":45.489719,"longitude":9.127528}},{"id":3858,"name":"Brescia (SAIA bus station)","default_address":{"address":"Via Solferino 6 (Autostazione - Stalli 2 e 14)","full_address":"Via Solferino 6 (Autostazione - Stalli 2 e 14), 25122 Brescia, Italy","coordinates":{"latitude":45.533056,"longitude":10.214444}},"address":"Via Solferino 6 (Autostazione - Stalli 2 e 14)","full_address":"Via Solferino 6 (Autostazione - Stalli 2 e 14), 25122 Brescia, Italy","coordinates":{"latitude":45.533056,"longitude":10.214444}},{"id":3758,"name":"Venice Mestre (Stazione FS)","default_address":{"address":"Viale Stazione 8\/8c","full_address":"Viale Stazione 8\/8c, 30171 Mestre, Italy","coordinates":{"latitude":45.482223,"longitude":12.233842}},"address":"Viale Stazione 8\/8c","full_address":"Viale Stazione 8\/8c, 30171 Mestre, Italy","coordinates":{"latitude":45.482223,"longitude":12.233842}},{"id":10188,"name":"Venice (Airport VCE)","default_address":{"address":"Parcheggio Bus - Via Galileo Galilei","full_address":"Parcheggio Bus - Via Galileo Galilei, 30173 Venice, Italy","coordinates":{"latitude":45.504182,"longitude":12.336193}},"address":"Parcheggio Bus - Via Galileo Galilei","full_address":"Parcheggio Bus - Via Galileo Galilei, 30173 Venice, Italy","coordinates":{"latitude":45.504182,"longitude":12.336193}},{"id":2545,"name":"Trieste","default_address":{"address":"Piazza della Libert\u00e0 9 (Autostazione Silos)","full_address":"Piazza della Libert\u00e0 9 (Autostazione Silos), 34135 Trieste (Triest), Italy","coordinates":{"latitude":45.657193,"longitude":13.770828}},"address":"Piazza della Libert\u00e0 9 (Autostazione Silos)","full_address":"Piazza della Libert\u00e0 9 (Autostazione Silos), 34135 Trieste (Triest), Italy","coordinates":{"latitude":45.657193,"longitude":13.770828}},{"id":2235,"name":"Ljubljana","default_address":{"address":"Trg Osvobodilne fronte 4","full_address":"Trg Osvobodilne fronte 4, 1000 Ljubljana, Slovenia","coordinates":{"latitude":46.057722,"longitude":14.510167}},"address":"Trg Osvobodilne fronte 4","full_address":"Trg Osvobodilne fronte 4, 1000 Ljubljana, Slovenia","coordinates":{"latitude":46.057722,"longitude":14.510167}}],"ride_id":81782361,"trip_uid":"direct:81782361:3388:2235","line_code":"L402","direction":"Zagreb","delay_status":"late","delay":{"timestamp":1570552535,"tz":"GMT+02:00"},"station_ride_message":"16 mins late"},{"through_the_stations":"Treviso Airport (parking E) \u2192 Venice (Airport VCE) \u2192 \u0160empeter\/Gorici \u2192 Ljubljana Dol.most \u2192 Ljubljana","datetime":{"timestamp":1570551840,"tz":"GMT+02:00"},"line_direction":"Route Nomago (K803) direction Ljubljana","route":[{"id":29798,"name":"Treviso Airport (parking E)","default_address":{"address":"Via le Canevare 38, parking E","full_address":"Via le Canevare 38, parking E, 31100 Treviso, Italy","coordinates":{"latitude":45.657135,"longitude":12.202878}},"address":"Via le Canevare 38, parking E","full_address":"Via le Canevare 38, parking E, 31100 Treviso, Italy","coordinates":{"latitude":45.657135,"longitude":12.202878}},{"id":10188,"name":"Venice (Airport VCE)","default_address":{"address":"Parcheggio Bus - Via Galileo Galilei","full_address":"Parcheggio Bus - Via Galileo Galilei, 30173 Venice, Italy","coordinates":{"latitude":45.504182,"longitude":12.336193}},"address":"Parcheggio Bus - Via Galileo Galilei","full_address":"Parcheggio Bus - Via Galileo Galilei, 30173 Venice, Italy","coordinates":{"latitude":45.504182,"longitude":12.336193}},{"id":29498,"name":"\u0160empeter\/Gorici","default_address":{"address":"Polje 15","full_address":"Polje 15, SLO-5290 \u0160empeter pri Gorici, Slovenia","coordinates":{"latitude":45.921586,"longitude":13.638463}},"address":"Polje 15","full_address":"Polje 15, SLO-5290 \u0160empeter pri Gorici, Slovenia","coordinates":{"latitude":45.921586,"longitude":13.638463}},{"id":29488,"name":"Ljubljana Dol.most","default_address":{"address":"Dolgi Most","full_address":"Dolgi Most, SLO-1000 Ljubljana, Slovenia","coordinates":{"latitude":46.03664,"longitude":14.462803}},"address":"Dolgi Most","full_address":"Dolgi Most, SLO-1000 Ljubljana, Slovenia","coordinates":{"latitude":46.03664,"longitude":14.462803}},{"id":2235,"name":"Ljubljana","default_address":{"address":"Trg Osvobodilne fronte 4","full_address":"Trg Osvobodilne fronte 4, 1000 Ljubljana, Slovenia","coordinates":{"latitude":46.057722,"longitude":14.510167}},"address":"Trg Osvobodilne fronte 4","full_address":"Trg Osvobodilne fronte 4, 1000 Ljubljana, Slovenia","coordinates":{"latitude":46.057722,"longitude":14.510167}}],"ride_id":85514661,"trip_uid":"direct:85514661:29798:2235","line_code":"Nomago (K803)","direction":"Ljubljana"},{"through_the_stations":"Zagreb \u2192 Ljubljana","datetime":{"timestamp":1570556100,"tz":"GMT+02:00"},"line_direction":"Route N880 direction Paris (Bercy Seine)","route":[{"id":2635,"name":"Zagreb","default_address":{"address":"Avenija Marina Dr\u017ei\u0107a 4","full_address":"Avenija Marina Dr\u017ei\u0107a 4, 10000 Zagreb, Croatia","coordinates":{"latitude":45.803417,"longitude":15.992278}},"address":"Avenija Marina Dr\u017ei\u0107a 4","full_address":"Avenija Marina Dr\u017ei\u0107a 4, 10000 Zagreb, Croatia","coordinates":{"latitude":45.803417,"longitude":15.992278}},{"id":2235,"name":"Ljubljana","default_address":{"address":"Trg Osvobodilne fronte 4","full_address":"Trg Osvobodilne fronte 4, 1000 Ljubljana, Slovenia","coordinates":{"latitude":46.057722,"longitude":14.510167}},"address":"Trg Osvobodilne fronte 4","full_address":"Trg Osvobodilne fronte 4, 1000 Ljubljana, Slovenia","coordinates":{"latitude":46.057722,"longitude":14.510167}}],"ride_id":88153501,"trip_uid":"direct:88153501:2635:2235","line_code":"N880","direction":"Paris (Bercy Seine)"}],"departures":[{"through_the_stations":"Ljubljana \u2192 Zagreb","datetime":{"timestamp":1570552200,"tz":"GMT+02:00"},"line_direction":"Route 402 direction Zagreb","route":[{"id":2235,"name":"Ljubljana","default_address":{"address":"Trg Osvobodilne fronte 4","full_address":"Trg Osvobodilne fronte 4, 1000 Ljubljana, Slovenia","coordinates":{"latitude":46.057722,"longitude":14.510167}},"address":"Trg Osvobodilne fronte 4","full_address":"Trg Osvobodilne fronte 4, 1000 Ljubljana, Slovenia","coordinates":{"latitude":46.057722,"longitude":14.510167}},{"id":2635,"name":"Zagreb","default_address":{"address":"Avenija Marina Dr\u017ei\u0107a 4","full_address":"Avenija Marina Dr\u017ei\u0107a 4, 10000 Zagreb, Croatia","coordinates":{"latitude":45.803417,"longitude":15.992278}},"address":"Avenija Marina Dr\u017ei\u0107a 4","full_address":"Avenija Marina Dr\u017ei\u0107a 4, 10000 Zagreb, Croatia","coordinates":{"latitude":45.803417,"longitude":15.992278}}],"ride_id":81782361,"trip_uid":"direct:81782361:2235:2635","line_code":"L402","direction":"Zagreb","delay_status":"late","delay":{"timestamp":1570552535,"tz":"GMT+02:00"},"station_ride_message":"6 mins late"},{"through_the_stations":"Ljubljana \u2192 Villach \u2192 Salzburg South \u2192 Munich central bus station \u2192 Karlsruhe \u2192 Baden-Baden \u2192 Strasbourg \u2192 Paris (Bercy Seine)","datetime":{"timestamp":1570556400,"tz":"GMT+02:00"},"line_direction":"Route N880 direction Paris (Bercy Seine)","route":[{"id":2235,"name":"Ljubljana","default_address":{"address":"Trg Osvobodilne fronte 4","full_address":"Trg Osvobodilne fronte 4, 1000 Ljubljana, Slovenia","coordinates":{"latitude":46.057722,"longitude":14.510167}},"address":"Trg Osvobodilne fronte 4","full_address":"Trg Osvobodilne fronte 4, 1000 Ljubljana, Slovenia","coordinates":{"latitude":46.057722,"longitude":14.510167}},{"id":9678,"name":"Villach","default_address":{"address":"Bahnhofplatz 5","full_address":"Bahnhofplatz 5, 9500 Villach, Austria","coordinates":{"latitude":46.61775,"longitude":13.847884}},"address":"Bahnhofplatz 5","full_address":"Bahnhofplatz 5, 9500 Villach, Austria","coordinates":{"latitude":46.61775,"longitude":13.847884}},{"id":22638,"name":"Salzburg South","default_address":{"address":"Hellbrunner Landesstra\u00dfe","full_address":"Hellbrunner Landesstra\u00dfe, 5020 Salzburg, Austria","coordinates":{"latitude":47.769959580973,"longitude":13.070768681905}},"address":"Hellbrunner Landesstra\u00dfe","full_address":"Hellbrunner Landesstra\u00dfe, 5020 Salzburg, Austria","coordinates":{"latitude":47.769959580973,"longitude":13.070768681905}},{"id":10,"name":"Munich central bus station","default_address":{"address":"Arnulfstra\u00dfe 21","full_address":"Arnulfstra\u00dfe 21, 80335 M\u00fcnchen, Germany","coordinates":{"latitude":48.14248,"longitude":11.55001}},"address":"Arnulfstra\u00dfe 21","full_address":"Arnulfstra\u00dfe 21, 80335 M\u00fcnchen, Germany","coordinates":{"latitude":48.14248,"longitude":11.55001}},{"id":26,"name":"Karlsruhe","default_address":{"address":"Hinterm Hauptbahnhof","full_address":"Hinterm Hauptbahnhof, 76137 Karlsruhe, Germany","coordinates":{"latitude":48.9914681,"longitude":8.4004533}},"address":"Hinterm Hauptbahnhof","full_address":"Hinterm Hauptbahnhof, 76137 Karlsruhe, Germany","coordinates":{"latitude":48.9914681,"longitude":8.4004533}},{"id":12288,"name":"Baden-Baden","default_address":{"address":"Ooser Bahnhofstra\u00dfe 4","full_address":"Ooser Bahnhofstra\u00dfe 4, 76532 Baden-Baden, Germany","coordinates":{"latitude":48.789499,"longitude":8.191384}},"address":"Ooser Bahnhofstra\u00dfe 4","full_address":"Ooser Bahnhofstra\u00dfe 4, 76532 Baden-Baden, Germany","coordinates":{"latitude":48.789499,"longitude":8.191384}},{"id":23,"name":"Strasbourg","default_address":{"address":"Place de l'\u00c9toile","full_address":"Place de l'\u00c9toile, 67076 Strasbourg, France","coordinates":{"latitude":48.5741794,"longitude":7.7542663}},"address":"Place de l'\u00c9toile","full_address":"Place de l'\u00c9toile, 67076 Strasbourg, France","coordinates":{"latitude":48.5741794,"longitude":7.7542663}},{"id":11558,"name":"Paris (Bercy Seine)","default_address":{"address":"210 quai de Bercy","full_address":"210 quai de Bercy, 75012 Paris, France","coordinates":{"latitude":48.835318,"longitude":2.380519}},"address":"210 quai de Bercy","full_address":"210 quai de Bercy, 75012 Paris, France","coordinates":{"latitude":48.835318,"longitude":2.380519}}],"ride_id":88153501,"trip_uid":"direct:88153501:2235:11558","line_code":"N880","direction":"Paris (Bercy Seine)"}],"message":"Passenger fee in the amount of 1,5 \u20ac is included in ticket price, in the name and on behalf of Bus station Ljubljana.\nGate 29 & 30, except line K803 - Gate 1."},"station":{"id":2235,"name":"Ljubljana","default_address":{"address":"Trg Osvobodilne fronte 4","full_address":"Trg Osvobodilne fronte 4, 1000 Ljubljana, Slovenija","coordinates":{"latitude":46.057722,"longitude":14.510167}},"address":"Trg Osvobodilne fronte 4","full_address":"Trg Osvobodilne fronte 4, 1000 Ljubljana, Slovenija","coordinates":{"latitude":46.057722,"longitude":14.510167}}}
